{
  "_note": "Sample public shelter locations for POC. Coordinates approximate real public shelters/community centers along the Tel Aviv - Haifa corridor.",
  "shelters": [
    { "id": "rlz-1", "name": "Rishon LeZion - Rabin Park Shelter", "lat": 31.9687, "lng": 34.7965, "type": "public" },
    { "id": "rlz-2", "name": "Rishon LeZion - Central Community Center", "lat": 31.9604, "lng": 34.8081, "type": "public" },
    { "id": "bat-1", "name": "Bat Yam - Central Bus Station Shelter", "lat": 32.0193, "lng": 34.7497, "type": "public" },
    { "id": "hol-1", "name": "Holon - Community Center Basement", "lat": 32.0117, "lng": 34.7721, "type": "underground" },
    { "id": "ta-1", "name": "Tel Aviv - Azrieli Center Shelter", "lat": 32.0738, "lng": 34.7914, "type": "underground" },
    { "id": "ta-2", "name": "Tel Aviv - Dizengoff Center", "lat": 32.0776, "lng": 34.7749, "type": "public" },
    { "id": "ta-3", "name": "Tel Aviv - HaShalom Station", "lat": 32.0720, "lng": 34.7923, "type": "public" },
    { "id": "rg-1", "name": "Ramat Gan - Diamond Exchange Shelter", "lat": 32.0854, "lng": 34.8092, "type": "underground" },
    { "id": "hz-1", "name": "Herzliya - Central Community Center", "lat": 32.1657, "lng": 34.8435, "type": "public" },
    { "id": "hz-2", "name": "Herzliya Pituach - Community Shelter", "lat": 32.1642, "lng": 34.8019, "type": "public" },
    { "id": "rnn-1", "name": "Ra'anana - Park Community Shelter", "lat": 32.1847, "lng": 34.8730, "type": "public" },
    { "id": "kfs-1", "name": "Kfar Saba - Central Sheltered Space", "lat": 32.1749, "lng": 34.9070, "type": "public" },
    { "id": "nty-1", "name": "Netanya - HaAtzmaut Square Shelter", "lat": 32.3296, "lng": 34.8540, "type": "public" },
    { "id": "nty-2", "name": "Netanya - Kiryat HaSharon Community", "lat": 32.3404, "lng": 34.8663, "type": "public" },
    { "id": "nty-3", "name": "Netanya - South District Shelter", "lat": 32.3095, "lng": 34.8553, "type": "underground" },
    { "id": "kyn-1", "name": "Kfar Yona - Municipal Shelter", "lat": 32.3187, "lng": 34.9345, "type": "public" },
    { "id": "prd-1", "name": "Pardesiya - Community Center", "lat": 32.3106, "lng": 34.9105, "type": "public" },
    { "id": "hdr-1", "name": "Hadera - Central Bus Station Shelter", "lat": 32.4373, "lng": 34.9184, "type": "public" },
    { "id": "hdr-2", "name": "Hadera - Community Sheltered Room", "lat": 32.4401, "lng": 34.9084, "type": "public" },
    { "id": "hdr-3", "name": "Hadera - Giv'at Olga Shelter", "lat": 32.4494, "lng": 34.8824, "type": "public" },
    { "id": "oak-1", "name": "Or Akiva - Municipal Shelter", "lat": 32.5083, "lng": 34.9205, "type": "public" },
    { "id": "csr-1", "name": "Caesarea - Tourist Center Shelter", "lat": 32.5012, "lng": 34.9050, "type": "public" },
    { "id": "znm-1", "name": "Zikhron Ya'akov - Main Shelter", "lat": 32.5731, "lng": 34.9530, "type": "public" },
    { "id": "atl-1", "name": "Atlit - Community Shelter", "lat": 32.6903, "lng": 34.9410, "type": "public" },
    { "id": "hfa-1", "name": "Haifa - Hadar Community Center", "lat": 32.8094, "lng": 34.9989, "type": "underground" },
    { "id": "hfa-2", "name": "Haifa - Carmel Center Shelter", "lat": 32.8014, "lng": 34.9867, "type": "underground" },
    { "id": "hfa-3", "name": "Haifa - Bat Galim Shelter", "lat": 32.8296, "lng": 34.9569, "type": "public" },
    { "id": "hfa-4", "name": "Haifa - Neve Sha'anan Community", "lat": 32.7788, "lng": 35.0204, "type": "public" },
    { "id": "kat-1", "name": "Kiryat Ata - Central Sheltered Space", "lat": 32.8095, "lng": 35.1165, "type": "public" },
    { "id": "kat-2", "name": "Kiryat Ata - Giv'at Alonim Shelter", "lat": 32.8214, "lng": 35.1079, "type": "public" },
    { "id": "krb-1", "name": "Kiryat Bialik - Municipal Shelter", "lat": 32.8280, "lng": 35.0820, "type": "public" },
    { "id": "krm-1", "name": "Kiryat Motzkin - Community Center", "lat": 32.8322, "lng": 35.0739, "type": "public" }
  ]
}
